name,stadsdeel,wijk,address,latitude,longitude,active,website_url,description,note,seating,toilets,free_water,free_fruit,food_to_buy,own_food_ok,airco,supervisor,accessible,games,pets_ok
AH Osdorpplein XL,Nieuw-West,Osdorp,"Osdorpplein, Amsterdam",52.35925476,4.803016897,yes,https://www.ah.nl/winkel/1027,Meerdere tafels met zitplekken.,Bekijk de actuele openingstijden op de website.,yes,yes,yes,yes,yes,no,yes,yes,yes,yes,no
Stadsboerderij Osdorp,Nieuw-West,Osdorp,"Osdorperhout 66, Amsterdam",52.35916932,4.79125584,yes,https://stadsboerderijosdorp.nl/,"Koele binnen- en buitenplekken. Goedkope drankjes (koffie, thee, limonade).",Tijdens warme periodes vaak ruimere openingstijden. Bekijk actuele tijden op de website.,yes,yes,yes,no,yes,yes,no,yes,yes,yes,no
Kerk de Opgang,Nieuw-West,Osdorp,"Osdorp-Sloten, Amsterdam",52.35814182,4.797850868,yes,https://www.protestantsamsterdam.nl/kerk/osdorp-sloten/,Soms buurtlunch (tegen betaling). Huisdieren toegestaan.,Tijdens warme periodes vaak ruimere openingstijden. Bekijk actuele tijden op de website.,yes,yes,yes,no,no,yes,no,yes,yes,yes,yes
OBA Slotermeer,Nieuw-West,Slotermeer,"Plein '40-'45 117, Amsterdam",52.37936085,4.820190547,yes,https://oba.nl/nl/over-oba/aangepaste-openingstijden-2026,Geen sterk ruikend of geluidmakend eten toegestaan. Hulphonden toegestaan. Activiteiten beschikbaar.,Aangepaste zomeropeningstijden. Bekijk actuele tijden op de website.,yes,yes,yes,no,no,yes,yes,yes,yes,no,no
OBA Postjesweg,Nieuw-West,Overtoomse Veld,"Postjesweg 1, Amsterdam",52.36447855,4.834966055,yes,https://oba.nl/nl/over-oba/aangepaste-openingstijden-2026,Geen sterk ruikend of geluidmakend eten toegestaan. Hulphonden toegestaan. OBA Café aanwezig. Activiteiten beschikbaar.,Aangepaste zomeropeningstijden. Bekijk actuele tijden op de website.,yes,yes,yes,no,yes,yes,yes,yes,yes,no,no
OBA Geuzenveld,Nieuw-West,Geuzenveld,"Notweg 135, Amsterdam",52.37814476,4.802531324,yes,https://oba.nl/nl/over-oba/aangepaste-openingstijden-2026,"Geen sterk ruikend of geluidmakend eten toegestaan. Hulphonden toegestaan. Drankautomaat (koffie, thee, chocolademelk). Activiteiten beschikbaar.",Aangepaste zomeropeningstijden. Bekijk actuele tijden op de website.,yes,yes,yes,no,yes,yes,yes,yes,yes,no,no
Kerk de Ark,Nieuw-West,Slotervaart,"Slotervaart, Amsterdam",52.35473101,4.825241143,yes,https://regenbooggemeente.nl/,Soms buurtlunch (tegen betaling). Hulphonden toegestaan.,Tijdens warme periodes vaak ruimere openingstijden. Bekijk actuele tijden op de website.,yes,yes,yes,no,no,yes,no,yes,yes,yes,no
